
[{
    "name": "Del Monte",
    "lat": 36.601531,
    "long": -121.889650,
    "type": "urban"
},
{
    "name": "Seaside",
    "lat": 36.611741,
    "long": -121.857722,
    "type": "urban"
},
{
    "name": "Marina",
    "lat": 36.698603,
    "long": -121.809490,
    "type": "urban"
},
{
    "name": "Sunset State Beach",
    "lat": 36.895603,
    "long": -121.838320,
    "type": "rural"
},
{
    "name": "Live Oak",
    "lat": 36.960213,
    "long": -121.986517,
    "type": "urban"
},
{
    "name": "Seabright",
    "lat": 36.961518,
    "long": -122.002881,
    "type": "urban"
},
{
    "name": "Capitola",
    "lat": 36.971864,
    "long": -121.950024,
    "type": "urban"
},
{
    "name": "Main Beach",
    "lat": 36.962532,
    "long": -122.023154,
    "type": "urban"
},
{
    "name": "North Zmudowski",
    "lat": 36.835505,
    "long": -121.802252,
    "type": "rural"
},
{
    "name": "South Zmudowski",
    "lat": 36.835505,
    "long": -121.802252,
    "type": "rural"
},
{
    "name": "Waddell",
    "lat": 37.096470,
    "long": -122.279871,
    "type": "rural"
},
{
    "name": "Natural Bridges",
    "lat": 36.949752,
    "long": -122.056780,
    "type": "urban"
}]